{"business_id":"AAQ3g1ufbkOEuPg4JJ3YnQ","name":"Osaka Sushi & Grill","address":"14428 N Dale Mabry Hwy","city":"Tampa","state":"FL","latitude":28.0794073214,"longitude":-82.5074851025,"stars":4.0,"review_count":136,"is_open":1,"categories":"Japanese, Asian Fusion, Restaurants, Sushi Bars","hours":{"Monday":"0:0-0:0","Tuesday":"16:30-22:0","Wednesday":"16:30-22:0","Thursday":"16:30-22:0","Friday":"16:30-23:0","Saturday":"11:30-23:0","Sunday":"12:0-22:0"},"description":"hello world","view_count":1,"vector":[0.51642,0.19634,0.08402,0.24856,0.0]}
{"business_id":"1aj82SfdQQQ2Bic-4mbAhg","name":"Hibachi San","address":"4500 N Oracle Rd, Ste Fc02","city":"Tucson","state":"AZ","latitude":32.2889019,"longitude":-110.9739527,"stars":2.5,"review_count":5,"is_open":0,"categories":"Restaurants, Japanese","hours":{"Monday":"8:0-19:0","Tuesday":"8:0-19:0","Wednesday":"8:0-19:0","Thursday":"8:0-19:0","Friday":"8:0-19:0","Saturday":"9:0-17:30"},"description":"hello world","view_count":1,"vector":[0.0738633333,0.0,0.0,0.0,0.0]}
{"business_id":"3NFn0dM9U2K_64vp_qEIug","name":"Artemesia Soaps, Salts & Scrubs","address":"6538 E Tanque Verde Rd, Ste 170","city":"Tucson","state":"AZ","latitude":32.2451881,"longitude":-110.8524133,"stars":5.0,"review_count":7,"is_open":1,"categories":"Cosmetics & Beauty Supply, Beauty & Spas, Skin Care, Shopping","hours":{"Tuesday":"10:0-17:0","Wednesday":"10:0-17:0","Thursday":"10:0-17:0","Friday":"10:0-17:0","Saturday":"10:0-15:0"},"description":"hello world","view_count":1,"vector":[0.1844633333,0.0,0.0,0.0843,0.0]}
{"business_id":"ZrkPvgCKxS_vBhYr8l-ZXw","name":"King Food","address":"2554 S American St","city":"Philadelphia","state":"PA","latitude":39.9158557,"longitude":-75.1524261,"stars":4.0,"review_count":15,"is_open":1,"categories":"American (Traditional), Chinese, Restaurants","hours":{"Monday":"11:0-22:30","Tuesday":"11:0-22:30","Wednesday":"11:0-22:30","Thursday":"11:0-22:30","Friday":"11:0-23:30","Saturday":"11:0-23:30"},"description":"hello world","view_count":1,"vector":[0.2049185079,0.11988,0.08038,0.11438,0.0]}
{"business_id":"ctHjyadbDQAtUFfkcAFEHw","name":"Zahav","address":"237 St James Pl","city":"Philadelphia","state":"PA","latitude":39.9462611465,"longitude":-75.1451350779,"stars":4.5,"review_count":3065,"is_open":1,"categories":"Nightlife, Bars, Food, Ethnic Food, Middle Eastern, Vegetarian, Specialty Food, Israeli, Restaurants","hours":{"Monday":"0:0-0:0","Tuesday":"16:45-21:30","Wednesday":"16:45-21:30","Thursday":"16:45-21:30","Friday":"16:45-21:30","Saturday":"16:45-21:30"},"description":"hello world","view_count":1,"vector":[0.1709540923,0.2762133333,0.21405,0.1072604762,0.078685]}
{"business_id":"xJ3aziMabFEjF8X0kvPfLw","name":"Au Bon Pain","address":"421 Curie Blvd","city":"Philadelphia","state":"PA","latitude":39.9480509614,"longitude":-75.1962727917,"stars":3.5,"review_count":27,"is_open":1,"categories":"Sandwiches, Restaurants, Cafes, Food, Breakfast & Brunch, Bakeries","hours":null,"description":"hello world","view_count":1,"vector":[0.1090115556,0.06249,0.0527066667,-0.04607,0.07224]}
{"business_id":"ayMyBuxLLifdptJd-FS4PA","name":"James Whitcomb Riley Museum Home","address":"528 Lockerbie St","city":"Indianapolis","state":"IN","latitude":39.7721911,"longitude":-86.1477903,"stars":5.0,"review_count":14,"is_open":1,"categories":"Landmarks & Historical Buildings, Museums, Public Services & Government, Arts & Entertainment","hours":{"Tuesday":"10:0-15:30","Wednesday":"10:0-15:30","Thursday":"10:0-15:30","Friday":"10:0-15:30","Saturday":"10:0-15:30"},"description":"hello world","view_count":1,"vector":[-0.0592,0.0,0.17502,0.0902766667,0.023976]}
{"business_id":"Ub8NRwZrsDC4thMrJrR7FA","name":"Sam Hughes Place Championship Dining","address":"446 N Campbell Ave, Ste 150","city":"Tucson","state":"AZ","latitude":32.227478,"longitude":-110.943359,"stars":2.5,"review_count":36,"is_open":0,"categories":"American (Traditional), Steakhouses, Restaurants","hours":{"Monday":"11:0-22:0","Tuesday":"11:0-2:0","Wednesday":"11:0-0:0","Thursday":"11:0-0:0","Friday":"11:0-2:0","Saturday":"9:0-2:0","Sunday":"9:0-22:0"},"description":"hello world","view_count":1,"vector":[0.14062,0.0,0.15158,0.18154,0.0]}
{"business_id":"ck8x9kfSJ4Okj2fz0_UDlQ","name":"Kyo Sushi","address":"9040 E Valencia Rd","city":"Tucson","state":"AZ","latitude":32.1183763,"longitude":-110.7987595,"stars":3.0,"review_count":7,"is_open":0,"categories":"Restaurants, Sushi Bars, Japanese","hours":null,"description":"hello world","view_count":1,"vector":[0.1125284127,0.0,0.0,0.0241733333,0.0]}
{"business_id":"dbRL4wqgFThGf9Q76wweTg","name":"The UPS Store","address":"1075 Broad Ripple Ave","city":"Indianapolis","state":"IN","latitude":39.8688277,"longitude":-86.139933,"stars":4.0,"review_count":24,"is_open":1,"categories":"Shipping Centers, Mailbox Centers, Local Services, Notaries, Printing Services","hours":{"Monday":"0:0-0:0","Tuesday":"8:30-19:0","Wednesday":"8:30-19:0","Thursday":"8:30-19:0","Friday":"8:30-19:0","Saturday":"9:0-16:0","Sunday":"11:0-16:0"},"description":"hello world","view_count":1,"vector":[0.0,0.0,0.0,0.20332,0.0]}
